{
  "nodes": [
    { "id": 991341, "name": "Africa", "lat": 37.5, "lon": 7.5 },
   { "id": 314843, "name": "Aptunga", "lat": 36.1865135, "lon": 10.031037 },
   { "id": 442469, "name": "Apulia", "lat": 40.7928, "lon": 17.1012 },
   { "id": 334501, "name": "Bagai, Numidia", "lat": 35.534434, "lon": 7.1173845 },
   { "id": 1, "name": "Balearic Islands", "lat": 39.5342, "lon": 2.8577 },
   { "id": 687856, "name": "Bethlehem", "lat": 31.712291, "lon": 35.202123 },
   { "id": 285482, "name": "Caesarea (Mauretania Caesariensis)", "lat": 36.52285575, "lon": 3.6414695 },
   { "id": 305039, "name": "Calama", "lat": 36.4643305, "lon": 7.427677 },
   { "id": 295240, "name": "Cartenna (Mauretania Caesariensis)", "lat": 36.510044, "lon": 1.310964 },
   { "id": 314921, "name": "Carthage", "lat": 36.8500325, "lon": 10.318 },
   { "id": 334514, "name": "Casae Nigrae (Numidia)", "lat": 34.473276, "lon": 7.507832 },
   { "id": 2, "name": "Cassiciacum", "lat": 45.834929, "lon": 8.781746 },
   { "id": 314844, "name": "Cataqua (Numidia)", "lat": 36.525792, "lon": 8.336988 },
   { "id": 305064, "name": "Cirta/Constantina", "lat": 36.3681146667, "lon": 6.61330266667 },
   { "id": 520998, "name": "Constantinople", "lat": 41.0077908096, "lon": 28.9612916083 },
   { "id": 993, "name": "Gaul", "lat": 45.57717715, "lon": 2.49095881905 },
   { "id": 305090, "name": "Hippo Regius", "lat": 36.882478, "lon": 7.751272 },
   { "id": 1052, "name": "Italy", "lat": 42.5, "lon": 12.5 },
   { "id": 315065, "name": "Madaura/Madauros", "lat": 36.077735, "lon": 7.902716 },
   { "id": 383706, "name": "Milan", "lat": 45.463746, "lon": 9.18806 },
   { "id": 305109, "name": "Milevis", "lat": 36.4512765, "lon": 6.267698 },
   { "id": 167849, "name": "Musti", "lat": 44.474637, "lon": 6.762891 },
   { "id": 246347, "name": "Narbonne, Gaul", "lat": 43.1836165, "lon": 3.004203 },
   { "id": 432981, "name": "Nola", "lat": 40.926823, "lon": 14.524545 },
   { "id": 981539, "name": "Numidia", "lat": 37.5, "lon": 7.5 },
   { "id": 393480, "name": "Ravenna", "lat": 44.415718, "lon": 12.196604 },
   { "id": 423025, "name": "Rome", "lat": 41.891775, "lon": 12.486137 },
   { "id": 197488, "name": "Salona, near Split, Dalmatia", "lat": 197488, "lon": 16.483426 },
   { "id": 315152, "name": "Sicca", "lat": 36.18057, "lon": 8.712204 },
   { "id": 981539, "name": "Siniti, Numidia", "lat": 37.5, "lon": 7.5 },
   { "id": 305153, "name": "Sitifis (Mauretania Sitifensis)", "lat": 36.1930925, "lon": 5.4108155 },
   { "id": 324815, "name": "Sufes", "lat": 35.5433595, "lon": 9.073196 },
   { "id": 42503, "name": "Syracuse", "lat": 37.07164055, "lon": 15.2791651 },
   { "id": 324825, "name": "Thaenae", "lat": 34.6553465, "lon": 10.670659 },
   { "id": 315198, "name": "Thagaste", "lat": 36.238412, "lon": 8.004957 },
   { "id": 334643, "name": "Tusuros in Byzacena", "lat": 33.91765, "lon": 8.143573 },
   { "id": 315251, "name": "Uzalis", "lat": 37.169048, "lon": 10.033986 }
   
],
"links": [
  { "source": 2, "target": 383706, "weight": 2 },
 { "source": 42503, "target": 305090, "weight": 1 },
 { "source": 197488, "target": 305090, "weight": 1 },
 { "source": 305039, "target": 305090, "weight": 1 },
 { "source": 305090, "target": 314921, "weight": 21 },
 { "source": 305090, "target": 981539, "weight": 3 },
 { "source": 305090, "target": 432981, "weight": 7 },
 { "source": 305090, "target": 687856, "weight": 11 },
 { "source": 305090, "target": 315198, "weight": 3 },
 { "source": 305090, "target": 305090, "weight": 12 },
 { "source": 305090, "target": 991341, "weight": 16 },
 { "source": 305090, "target": 383706, "weight": 1 },
 { "source": 305090, "target": 305064, "weight": 4 },
 { "source": 305090, "target": 423025, "weight": 6 },
 { "source": 305090, "target": 324815, "weight": 1 },
 { "source": 305090, "target": 305039, "weight": 4 },
 { "source": 305090, "target": 305109, "weight": 4 },
 { "source": 305090, "target": 334501, "weight": 1 },
 { "source": 305090, "target": 167849, "weight": 1 },
 { "source": 305090, "target": 305153, "weight": 1 },
 { "source": 305090, "target": 334514, "weight": 1 },
 { "source": 305090, "target": 442469, "weight": 1 },
 { "source": 305090, "target": 314843, "weight": 1 },
 { "source": 305090, "target": 315152, "weight": 1 },
 { "source": 305090, "target": 42503, "weight": 1 },
 { "source": 305090, "target": 315251, "weight": 3 },
 { "source": 305090, "target": 324825, "weight": 2 },
 { "source": 305090, "target": 246347, "weight": 1 },
 { "source": 305090, "target": 993, "weight": 1 },
 { "source": 305090, "target": 1052, "weight": 1 },
 { "source": 305090, "target": 520998, "weight": 1 },
 { "source": 305090, "target": 334643, "weight": 1 },
 { "source": 305090, "target": 197488, "weight": 2 },
 { "source": 305090, "target": 393480, "weight": 1 },
 { "source": 305109, "target": 423025, "weight": 1 },
 { "source": 314921, "target": 315198, "weight": 2 },
 { "source": 314921, "target": 305090, "weight": 2 },
 { "source": 314921, "target": 423025, "weight": 2 },
 { "source": 315198, "target": 991341, "weight": 1 },
 { "source": 315251, "target": 305090, "weight": 5 },
 { "source": 423025, "target": 423025, "weight": 1 },
 { "source": 423025, "target": 314921, "weight": 3 },
 { "source": 423025, "target": 981539, "weight": 1 },
 { "source": 432981, "target": 315198, "weight": 1 },
 { "source": 432981, "target": 305090, "weight": 2 },
 { "source": 432981, "target": 432981, "weight": 1 },
 { "source": 687856, "target": 687856, "weight": 1 },
 { "source": 687856, "target": 314921, "weight": 1 },
 { "source": 687856, "target": 305090, "weight": 1 },
 { "source": 991341, "target": 305090, "weight": 1 }
]
}
